Name,Time,Latitude,Longitude,Height,Yaw,Pitch,Roll
DSC02364.JPG,2015-06-12T22:08:02,58.69320823,-93.40022301,25.08,-5.64842,-0.343696,-0.898435
DSC02365.JPG,2015-06-12T22:08:03,58.69339561,-93.40043222,24.86,-5.53164,-0.0872384,-1.43087
DSC02366.JPG,2015-06-12T22:08:04,58.69365284,-93.40071876,25.86,-5.49205,-0.00647186,-1.63662
DSC02367.JPG,2015-06-12T22:08:05,58.69381454,-93.40090289,27.08,-5.57886,0.394463,-1.16867
DSC02368.JPG,2015-06-12T22:08:06,58.69399904,-93.40111529,28.75,-5.63566,0.317036,-0.974925
DSC02369.JPG,2015-06-12T22:08:31,58.69406943,-93.40070344,30.46,-2.75709,-0.0149396,-0.0522853
DSC02370.JPG,2015-06-12T22:08:32,58.69389596,-93.4005517,29.96,-2.68943,0.00163706,-0.00590725
DSC02371.JPG,2015-06-12T22:08:33,58.69378141,-93.40044574,29.42,-2.67775,0.00588611,-0.0737809
DSC02372.JPG,2015-06-12T22:08:34,58.69360198,-93.40026983,28.58,-2.61906,-0.0216601,-0.0658977
DSC02373.JPG,2015-06-12T22:08:35,58.6934781,-93.40013946,26.98,-2.59979,-0.00348782,-0.0359771
DSC02374.JPG,2015-06-12T22:08:36,58.69329375,-93.39993505,25.31,-2.59422,0.0582138,-0.0402596
DSC02375.JPG,2015-06-12T22:08:37,58.69313275,-93.39975385,24.77,-2.57263,-0.0591486,0.0396955
DSC02376.JPG,2015-06-12T22:08:38,58.6929724,-93.39958255,25.22,-2.62902,-0.141191,-0.0384983
DSC02377.JPG,2015-06-12T22:09:04,58.69325526,-93.39921662,31.27,-5.16626,-1.79156,0.290139
DSC02378.JPG,2015-06-12T22:09:05,58.69341087,-93.39948092,30.91,-5.4241,-1.32823,0.208857
DSC02379.JPG,2015-06-12T22:09:07,58.6936088,-93.39975484,30.55,-5.62362,-0.179056,-0.459554
DSC02380.JPG,2015-06-12T22:09:08,58.69377158,-93.39994988,31.19,-5.69581,0.283076,-0.536019
DSC02381.JPG,2015-06-12T22:09:09,58.6939634,-93.40016372,32.41,-5.71772,-0.615795,-0.459069
DSC02382.JPG,2015-06-12T22:09:10,58.69414517,-93.40035926,33.25,-5.6942,1.22072,0.0193788
DSC02383.JPG,2015-06-12T22:09:11,58.69431777,-93.40054169,32.31,-5.68416,1.048,0.408541
DSC02384.JPG,2015-06-12T22:09:12,58.69449736,-93.40072983,30.2,-5.8001,0.479359,0.347061
DSC02385.JPG,2015-06-12T22:09:13,58.69465158,-93.40088753,27.31,-5.75883,0.343977,-0.724921
DSC02386.JPG,2015-06-12T22:09:14,58.69486759,-93.40111071,25.64,-5.69209,0.66024,-0.81585
DSC02387.JPG,2015-06-12T22:09:15,58.69507621,-93.40133879,24.32,-5.65056,0.778767,-0.910793
DSC02388.JPG,2015-06-12T22:09:40,58.69496365,-93.40078957,25.38,-2.6757,-0.09941,-0.0801459
DSC02389.JPG,2015-06-12T22:09:41,58.69477099,-93.40060401,25.71,-2.66778,-0.109273,-0.0671261
DSC02390.JPG,2015-06-12T22:09:42,58.69462806,-93.40045791,26.27,-2.65278,-0.0905483,0.00103051
DSC02391.JPG,2015-06-12T22:09:43,58.69448457,-93.40030896,26.82,-2.681,-0.0919394,-0.0430114
DSC02392.JPG,2015-06-12T22:09:44,58.69428299,-93.40009871,27.38,-2.6682,-0.0862082,-0.00649714
DSC02393.JPG,2015-06-12T22:09:45,58.69412945,-93.39993643,28.44,-2.66091,-0.0705317,-0.00586506
DSC02394.JPG,2015-06-12T22:09:46,58.69396256,-93.39976381,29.97,-2.60463,-0.106422,-0.032445
DSC02395.JPG,2015-06-12T22:09:47,58.69380287,-93.39959355,32.19,-2.58766,-0.0557489,0.0288245
DSC02396.JPG,2015-06-12T22:09:48,58.6936505,-93.39943244,33.14,-2.61981,-0.0246636,-0.00914646
DSC02397.JPG,2015-06-12T22:09:49,58.69349811,-93.39926747,32.64,-2.63073,0.0043443,-0.0197591
DSC02398.JPG,2015-06-12T22:09:50,58.69335923,-93.39911711,31.11,-2.61568,-0.0192632,-0.0052631
DSC02399.JPG,2015-06-12T22:09:51,58.6931656,-93.39890245,30.23,-2.65036,-0.0269734,0.0365147
DSC02400.JPG,2015-06-12T22:09:52,58.6930372,-93.39876336,29.68,-2.64264,-0.0382656,-0.0248356
DSC02401.JPG,2015-06-12T22:10:19,58.693238,-93.39816589,31.25,-5.35553,-1.17306,0.438466
DSC02402.JPG,2015-06-12T22:10:20,58.69340477,-93.3984497,30.42,-5.51337,-0.8011,0.421119
DSC02403.JPG,2015-06-12T22:10:21,58.69353075,-93.39863748,29.58,-5.63847,-0.350314,0.432257
DSC02404.JPG,2015-06-12T22:10:22,58.69374876,-93.39893107,26.42,-5.6856,-0.392254,0.214641
DSC02405.JPG,2015-06-12T22:10:23,58.69390803,-93.39912283,24.31,-5.71478,-0.301957,-0.363653
DSC02406.JPG,2015-06-12T22:10:24,58.69412818,-93.39936955,22.64,-5.64213,-0.0860329,-0.997599
DSC02407.JPG,2015-06-12T22:10:25,58.69433973,-93.39960286,23.94,-5.59916,0.59392,-1.03275
DSC02408.JPG,2015-06-12T22:10:26,58.69452122,-93.39981279,24.91,-5.54643,0.0010289,-1.27
DSC02409.JPG,2015-06-12T22:10:27,58.69472628,-93.40006429,25.75,-5.68821,0.171611,-0.332252
DSC02410.JPG,2015-06-12T22:10:28,58.69489144,-93.40026975,26.91,-5.67408,-0.784647,-0.284879
DSC02411.JPG,2015-06-12T22:10:29,58.69510516,-93.40052949,27.46,-5.6402,-0.666202,-0.735732
DSC02412.JPG,2015-06-12T22:10:30,58.69530808,-93.40076435,26.96,-5.74273,0.0473485,-0.323077
DSC02413.JPG,2015-06-12T22:10:31,58.69544631,-93.40092214,26.31,-5.74028,-0.123221,-0.43925
DSC02414.JPG,2015-06-12T22:10:32,58.69567081,-93.40117521,24.64,-5.73837,-0.00154867,-0.344898
DSC02415.JPG,2015-06-12T22:10:33,58.69583194,-93.40135427,23.25,-5.72399,0.0857786,-0.720413
DSC02416.JPG,2015-06-12T22:10:58,58.69581559,-93.40075772,22.89,-2.69149,-0.117891,0.0168231
DSC02417.JPG,2015-06-12T22:10:59,58.69563766,-93.40059166,23.27,-2.76229,-0.173399,-0.0278165
DSC02418.JPG,2015-06-12T22:11:00,58.69549832,-93.40046115,24.08,-2.80546,-0.107367,-0.0392376
DSC02419.JPG,2015-06-12T22:11:01,58.69529609,-93.40027198,26.96,-2.64286,-0.134041,-0.0415758
DSC02420.JPG,2015-06-12T22:11:02,58.69513102,-93.40011517,29.86,-2.64918,-0.128762,-0.089056
DSC02421.JPG,2015-06-12T22:11:03,58.69497722,-93.39996093,31.44,-2.64473,-0.0885172,0.010151
DSC02422.JPG,2015-06-12T22:11:04,58.69481149,-93.39978631,30.11,-2.62491,0.0606439,-0.01497
DSC02423.JPG,2015-06-12T22:11:05,58.69467098,-93.39963243,29.08,-2.61748,-0.0392477,-0.12837
DSC02424.JPG,2015-06-12T22:11:07,58.69435157,-93.3992613,26.59,-2.59647,-0.143041,0.0951969
DSC02425.JPG,2015-06-12T22:11:07,58.69451249,-93.39944844,27.97,-2.6102,0.0142784,0.087843
DSC02426.JPG,2015-06-12T22:11:09,58.69415922,-93.39905184,27.09,-2.60218,-0.152924,-0.0411655
DSC02427.JPG,2015-06-12T22:11:10,58.69401614,-93.39889485,27.6,-2.60776,-0.139213,-0.00618635
DSC02428.JPG,2015-06-12T22:11:11,58.69387686,-93.39873846,28.16,-2.60222,-0.141612,0.00427631
DSC02429.JPG,2015-06-12T22:11:12,58.69368712,-93.3985209,28.63,-2.58297,-0.0475002,0.0361781
DSC02430.JPG,2015-06-12T22:11:13,58.69354421,-93.39835466,28.92,-2.57668,-0.0510023,0.0138067
DSC02431.JPG,2015-06-12T22:11:14,58.69338865,-93.39817382,29.21,-2.60552,-0.0852806,0.00603721
DSC02432.JPG,2015-06-12T22:11:15,58.69324038,-93.39800222,29.51,-2.61409,-0.0597378,0.00207211
DSC02433.JPG,2015-06-12T22:11:16,58.69309144,-93.39783001,30.42,-2.60704,-0.00253223,-0.00755737
DSC02434.JPG,2015-06-12T22:11:17,58.69293556,-93.3976491,30.11,-2.60092,0.00538772,-0.0234066
DSC02435.JPG,2015-06-12T22:11:41,58.69322048,-93.39733829,23.64,-5.3796,-1.55561,-0.225749
DSC02436.JPG,2015-06-12T22:11:42,58.69342618,-93.39762234,24.74,-5.58284,-0.505452,-0.794249
DSC02437.JPG,2015-06-12T22:11:43,58.69360673,-93.39784845,25.36,-5.65471,-0.0997101,-0.530197
DSC02438.JPG,2015-06-12T22:11:44,58.69382327,-93.39811688,26.09,-5.67132,-0.114872,-0.548446
DSC02439.JPG,2015-06-12T22:11:45,58.693994,-93.3983258,26.86,-5.58141,-0.278141,-1.13599
DSC02440.JPG,2015-06-12T22:11:46,58.69420833,-93.3985798,27.69,-5.66753,-0.529923,-0.350323
DSC02441.JPG,2015-06-12T22:11:47,58.69441628,-93.39882287,28.25,-5.73793,-0.154143,-0.0516668
DSC02442.JPG,2015-06-12T22:11:48,58.69455808,-93.39898474,27.09,-5.72873,0.300889,0.155381
DSC02443.JPG,2015-06-12T22:11:49,58.69478861,-93.39923908,24.64,-5.81567,0.098758,-0.170371
DSC02444.JPG,2015-06-12T22:11:50,58.69495586,-93.39941602,22.97,-5.74991,0.59155,-0.512842
DSC02445.JPG,2015-06-12T22:11:51,58.69521502,-93.39968359,21.62,-5.53716,0.835397,-1.31159
DSC02446.JPG,2015-06-12T22:11:52,58.69543664,-93.39991617,22.34,-5.53906,0.125346,-1.654
DSC02447.JPG,2015-06-12T22:11:53,58.69564603,-93.40014862,24.36,-5.45173,-0.0342312,-1.75806
DSC02448.JPG,2015-06-12T22:11:54,58.69587,-93.40040838,28.36,-5.5616,-0.573768,-1.3129
DSC02449.JPG,2015-06-12T22:11:55,58.69605321,-93.40062094,31.3,-5.6177,-0.218237,-1.14981
DSC02450.JPG,2015-06-12T22:11:56,58.69626126,-93.40085465,34.36,-5.63022,-0.11314,-0.990971
DSC02451.JPG,2015-06-12T22:11:57,58.69645521,-93.40106984,36.41,-5.66528,-0.688647,-0.146675
DSC02452.JPG,2015-06-12T22:11:59,58.69660905,-93.40123524,38.08,-5.8229,0.0265928,-0.379064
DSC02453.JPG,2015-06-12T22:12:26,58.69669019,-93.40080991,28.92,-2.7215,0.0684228,-0.0144579
DSC02454.JPG,2015-06-12T22:12:27,58.69653148,-93.40067708,26.53,-2.69048,0.0746731,-0.0443029
DSC02455.JPG,2015-06-12T22:12:28,58.69639798,-93.40055446,23.09,-2.65916,-0.0534778,-0.0689339
DSC02456.JPG,2015-06-12T22:12:29,58.69620876,-93.40035737,19.76,-2.61713,-0.149064,-0.0341858
DSC02457.JPG,2015-06-12T22:12:30,58.69602497,-93.40014956,18.74,-2.59855,-0.211771,0.0320616
DSC02458.JPG,2015-06-12T22:12:31,58.69586475,-93.39996777,19.36,-2.59149,-0.208945,0.00756627
DSC02459.JPG,2015-06-12T22:12:32,58.6956723,-93.39974841,20.69,-2.60591,-0.236402,0.0554635
DSC02460.JPG,2015-06-12T22:12:33,58.69552402,-93.39958112,22.08,-2.61815,-0.194128,0.0118935
DSC02461.JPG,2015-06-12T22:12:34,58.69534621,-93.39938169,24.75,-2.6229,-0.174748,0.079653
DSC02462.JPG,2015-06-12T22:12:35,58.6951734,-93.39919223,26.42,-2.60983,-0.109451,0.0899291
DSC02463.JPG,2015-06-12T22:12:36,58.69500886,-93.39901894,26.68,-2.63381,-0.0624436,0.00814629
DSC02464.JPG,2015-06-12T22:12:37,58.69486295,-93.39886645,26.85,-2.65094,-0.069163,-0.0345657
DSC02465.JPG,2015-06-12T22:12:38,58.69473581,-93.39873059,27.02,-2.60509,-0.0583379,-0.0331688
DSC02466.JPG,2015-06-12T22:12:39,58.69455077,-93.39852062,27.18,-2.58957,-0.0614936,-0.00177075
DSC02467.JPG,2015-06-12T22:12:40,58.69439734,-93.39833754,27.35,-2.58221,-0.0684178,-0.00370819
DSC02468.JPG,2015-06-12T22:12:41,58.69425079,-93.39815976,27.52,-2.60497,-0.0831404,0.0903987
DSC02469.JPG,2015-06-12T22:12:42,58.69408657,-93.39797125,28.19,-2.61147,-0.0817131,0.0773671
DSC02470.JPG,2015-06-12T22:12:43,58.69394895,-93.39782083,29.41,-2.53811,-0.105435,0.0793283
DSC02471.JPG,2015-06-12T22:12:44,58.69379741,-93.3976614,31.08,-2.66997,-0.0255608,-0.106113
DSC02472.JPG,2015-06-12T22:12:45,58.69365431,-93.3975069,31.0,-2.66277,0.0666758,-0.0975429
DSC02473.JPG,2015-06-12T22:12:46,58.69349251,-93.39731759,31.08,-2.58518,-0.0431681,0.0591993
DSC02474.JPG,2015-06-12T22:12:47,58.69337295,-93.3971782,32.14,-2.59239,0.0953299,0.0259324
DSC02475.JPG,2015-06-12T22:12:48,58.69325245,-93.3970407,31.64,-2.60155,0.209046,0.137502
DSC02476.JPG,2015-06-12T22:12:49,58.69307189,-93.39684872,28.42,-2.62943,0.0362086,0.064858
DSC02477.JPG,2015-06-12T22:12:50,58.69292297,-93.39669923,25.7,-2.61523,-0.0520621,-0.0103219
DSC02478.JPG,2015-06-12T22:13:14,58.69321022,-93.39649476,30.31,-5.31661,-1.72549,0.534537
DSC02479.JPG,2015-06-12T22:13:15,58.69338709,-93.3967443,28.86,-5.60645,-1.02603,-0.172834
DSC02480.JPG,2015-06-12T22:13:16,58.69356848,-93.39694794,28.93,-5.77388,-0.132728,-0.423819
DSC02481.JPG,2015-06-12T22:13:17,58.69374758,-93.39713091,29.49,-5.71004,-0.338078,-0.957437
DSC02482.JPG,2015-06-12T22:13:18,58.69394667,-93.39732007,31.08,-5.5847,1.75914,-0.312915
DSC02483.JPG,2015-06-12T22:13:19,58.69416228,-93.39752934,32.69,-5.75971,0.783312,-0.288858
DSC02484.JPG,2015-06-12T22:13:21,58.69433392,-93.3977017,33.29,-5.80303,-0.305405,-0.243367
DSC02485.JPG,2015-06-12T22:13:22,58.694694,-93.39807723,31.31,-5.66122,1.0062,0.408458
DSC02486.JPG,2015-06-12T22:13:22,58.69453447,-93.39790721,32.58,-5.67766,0.979243,0.0278484
DSC02487.JPG,2015-06-12T22:13:24,58.69488914,-93.39829444,28.75,-5.74586,0.354453,0.233257
DSC02488.JPG,2015-06-12T22:13:25,58.69508383,-93.39851763,26.97,-5.62429,-0.850799,-0.276387
DSC02489.JPG,2015-06-12T22:13:26,58.69526173,-93.39871793,27.44,-5.63932,0.460172,-1.03377
DSC02490.JPG,2015-06-12T22:13:27,58.69545669,-93.39894435,29.08,-5.62632,0.877498,-0.469375
DSC02491.JPG,2015-06-12T22:13:28,58.69561513,-93.39913815,29.93,-5.72108,0.0168462,-0.35724
DSC02492.JPG,2015-06-12T22:13:29,58.69582305,-93.39940217,30.49,-5.61261,-1.05524,0.0694929
DSC02493.JPG,2015-06-12T22:13:30,58.69602103,-93.39964541,29.86,-5.72951,0.188693,-0.108007
DSC02494.JPG,2015-06-12T22:13:31,58.69619345,-93.39985059,28.86,-5.70172,0.61635,-0.0698573
DSC02495.JPG,2015-06-12T22:13:32,58.69640595,-93.40009967,28.01,-5.73249,-0.30948,-0.0953625
DSC02496.JPG,2015-06-12T22:13:33,58.69658756,-93.40030754,27.66,-5.74013,-0.0406349,-0.203101
DSC02497.JPG,2015-06-12T22:13:34,58.696805,-93.40055553,28.04,-5.62319,-0.425805,-1.03119
DSC02498.JPG,2015-06-12T22:13:35,58.69700818,-93.40078877,28.42,-5.68204,-0.327788,-0.735733
DSC02499.JPG,2015-06-12T22:13:36,58.69717104,-93.40097578,28.12,-5.744,-0.190176,-0.157644
DSC02500.JPG,2015-06-12T22:13:37,58.6973776,-93.40120628,27.57,-5.73607,-0.351052,-0.130301
DSC02501.JPG,2015-06-12T22:13:38,58.69754103,-93.40138007,25.98,-5.67209,0.0640327,-1.0458
DSC02502.JPG,2015-06-12T22:14:04,58.69753408,-93.40085816,26.47,-2.69935,-0.0607678,-0.0206605
DSC02503.JPG,2015-06-12T22:14:05,58.69740535,-93.4007344,28.08,-2.6794,-0.0587306,-0.012807
DSC02504.JPG,2015-06-12T22:14:06,58.69721944,-93.40055578,29.31,-2.69405,0.00260008,-0.0145707
DSC02505.JPG,2015-06-12T22:14:07,58.69706361,-93.400403,27.86,-2.64681,0.0239363,-0.0249333
DSC02506.JPG,2015-06-12T22:14:08,58.69691652,-93.40025436,26.61,-2.67204,0.0461505,-0.0709647
DSC02507.JPG,2015-06-12T22:14:09,58.69675416,-93.40007857,24.11,-2.60275,-0.0258217,-0.0674836
DSC02508.JPG,2015-06-12T22:14:10,58.69661615,-93.39991865,22.64,-2.56319,-0.0272881,-0.0260842
DSC02509.JPG,2015-06-12T22:14:11,58.69645992,-93.39972748,21.25,-2.56319,-0.0565533,-0.0163946
DSC02510.JPG,2015-06-12T22:14:13,58.69611261,-93.39928953,20.96,-2.58717,-0.0995494,0.0450112
DSC02511.JPG,2015-06-12T22:14:13,58.69628733,-93.39950736,20.58,-2.56847,-0.0782381,0.062322
DSC02512.JPG,2015-06-12T22:14:15,58.69597238,-93.39912258,21.35,-2.58609,-0.179576,0.0895751
DSC02513.JPG,2015-06-12T22:14:16,58.69582681,-93.39895504,21.82,-2.59038,-0.150113,0.0558655
DSC02514.JPG,2015-06-12T22:14:17,58.69561936,-93.39872085,22.38,-2.58312,-0.161084,0.0126375
DSC02515.JPG,2015-06-12T22:14:18,58.69545957,-93.39853872,23.44,-2.60593,-0.168676,0.0791699
DSC02516.JPG,2015-06-12T22:14:19,58.69528725,-93.39834457,24.75,-2.61184,-0.172833,0.0704802
DSC02517.JPG,2015-06-12T22:14:20,58.69511704,-93.39816061,26.86,-2.63511,-0.157428,0.0698755
DSC02518.JPG,2015-06-12T22:14:21,58.6949571,-93.39799179,28.75,-2.60772,-0.112283,0.101023
DSC02519.JPG,2015-06-12T22:14:22,58.6947952,-93.39782452,30.42,-2.62937,-0.127011,0.0307988
DSC02520.JPG,2015-06-12T22:14:23,58.69462273,-93.39764796,31.4,-2.63623,-0.0784156,0.0385807
DSC02521.JPG,2015-06-12T22:14:24,58.69444894,-93.39747038,31.02,-2.64079,-0.0951394,0.045771
DSC02522.JPG,2015-06-12T22:14:25,58.69431907,-93.39734136,30.63,-2.66163,-0.0263181,0.00514226
DSC02523.JPG,2015-06-12T22:14:26,58.69416954,-93.39719086,29.42,-2.67042,-0.0132496,-0.0264839
DSC02524.JPG,2015-06-12T22:14:27,58.69398361,-93.39699712,28.58,-2.63028,-0.0526351,-0.0228569
DSC02525.JPG,2015-06-12T22:14:28,58.69384228,-93.39684168,28.95,-2.62193,-0.030564,-0.0408918
DSC02526.JPG,2015-06-12T22:14:29,58.69367875,-93.39665153,29.41,-2.60633,-0.0394408,0.00652994
DSC02527.JPG,2015-06-12T22:14:30,58.69353815,-93.39648808,30.44,-2.62705,-0.0793335,-0.0358926
DSC02528.JPG,2015-06-12T22:14:31,58.69338306,-93.39631054,30.92,-2.63369,-0.0191497,-0.0289123
DSC02529.JPG,2015-06-12T22:14:32,58.69323524,-93.39613857,31.33,-2.62257,-0.0357075,0.0148654
DSC02530.JPG,2015-06-12T22:14:33,58.69308542,-93.39596301,31.91,-2.58023,-0.0571682,0.0558551
DSC02531.JPG,2015-06-12T22:14:34,58.69292513,-93.39578659,32.42,-2.65125,-0.00866013,-0.0180135
DSC02532.JPG,2015-06-12T22:14:59,58.69323846,-93.3953958,36.68,-5.33646,-1.04275,0.878524
DSC02533.JPG,2015-06-12T22:15:00,58.69340332,-93.39570076,35.77,-5.53913,-0.605108,0.655662
DSC02534.JPG,2015-06-12T22:15:01,58.6935754,-93.39596052,34.31,-5.43546,-1.49004,0.803273
DSC02535.JPG,2015-06-12T22:15:02,58.69376236,-93.39619072,32.64,-5.67355,-1.04775,0.22379
DSC02536.JPG,2015-06-12T22:15:03,58.69394232,-93.39637378,32.06,-5.5175,1.76597,-0.247101
DSC02537.JPG,2015-06-12T22:15:04,58.69415661,-93.39658531,31.56,-5.71059,0.376033,-0.621332
DSC02538.JPG,2015-06-12T22:15:05,58.69436065,-93.3967953,30.69,-5.63494,1.07807,-0.65544
DSC02539.JPG,2015-06-12T22:15:06,58.69454848,-93.39700456,31.19,-5.63611,0.0955061,-0.829364
DSC02540.JPG,2015-06-12T22:15:07,58.694783,-93.39727913,31.81,-5.65521,0.06713,-0.565106
DSC02541.JPG,2015-06-12T22:15:08,58.69494682,-93.39747308,32.36,-5.68135,-0.0242617,0.529013
DSC02542.JPG,2015-06-12T22:15:09,58.69515084,-93.39770845,30.97,-5.74964,-0.281147,-0.0950105
DSC02543.JPG,2015-06-12T22:15:10,58.69532811,-93.3979061,29.61,-5.72569,-0.312503,-0.316802
DSC02544.JPG,2015-06-12T22:15:11,58.69552494,-93.39812454,29.06,-5.69733,0.219341,-0.318016
DSC02545.JPG,2015-06-12T22:15:12,58.69571164,-93.39833437,28.56,-5.61615,0.642447,-0.170309
DSC02546.JPG,2015-06-12T22:15:13,58.69586292,-93.39850717,26.97,-5.69931,0.603515,-0.0362746
DSC02547.JPG,2015-06-12T22:15:14,58.69608987,-93.39877141,25.5,-5.72545,-0.453859,-0.404249
DSC02548.JPG,2015-06-12T22:15:15,58.69627019,-93.39898053,25.28,-5.75087,0.0720022,-0.499415
DSC02549.JPG,2015-06-12T22:15:16,58.69647095,-93.39920957,25.06,-5.72138,0.0784982,-0.470943
DSC02550.JPG,2015-06-12T22:15:17,58.69669671,-93.39946666,24.85,-5.73835,0.0560208,-0.300148
DSC02551.JPG,2015-06-12T22:15:18,58.69686661,-93.39965853,24.63,-5.74924,0.496115,-0.187529
DSC02552.JPG,2015-06-12T22:15:19,58.69708442,-93.39990108,23.64,-5.72284,0.0985837,-0.743317
DSC02553.JPG,2015-06-12T22:15:20,58.69729713,-93.40013394,23.84,-5.62627,0.314237,-1.26178
DSC02554.JPG,2015-06-12T22:15:21,58.6974714,-93.40032851,24.17,-5.62241,-0.262223,-1.25729
DSC02555.JPG,2015-06-12T22:15:22,58.69768734,-93.40057271,24.51,-5.62207,-0.241215,-1.3002
DSC02556.JPG,2015-06-12T22:15:23,58.69789524,-93.40081358,24.06,-5.72749,-0.0937444,-0.734122
DSC02557.JPG,2015-06-12T22:15:24,58.698093,-93.4010424,23.56,-5.59733,-0.65695,-0.905612
DSC02558.JPG,2015-06-12T22:15:25,58.6982981,-93.40127611,24.71,-5.54838,-0.444951,-1.26395
DSC02559.JPG,2015-06-12T22:15:26,58.69848917,-93.4014964,25.27,-5.60828,-0.560697,-0.98123
DSC02560.JPG,2015-06-12T22:15:51,58.69837736,-93.40080117,25.96,-2.69629,-0.0102387,-0.0606845
DSC02561.JPG,2015-06-12T22:15:52,58.69823511,-93.40066603,25.42,-2.66294,0.00656083,-0.0617072
DSC02562.JPG,2015-06-12T22:15:53,58.69809425,-93.40052426,24.58,-2.62506,-0.0427008,0.0529325
DSC02563.JPG,2015-06-12T22:15:54,58.69789405,-93.40031689,25.3,-2.59316,-0.0816283,-0.0153432
DSC02564.JPG,2015-06-12T22:15:55,58.69774285,-93.40015912,26.44,-2.62127,-0.0624874,-0.00639888
DSC02565.JPG,2015-06-12T22:15:56,58.69758177,-93.39999083,28.43,-2.62868,-0.0270138,-0.0390595
DSC02566.JPG,2015-06-12T22:15:57,58.69742473,-93.39982551,27.72,-2.62626,-0.0215333,-0.075632
DSC02567.JPG,2015-06-12T22:15:58,58.69727484,-93.39965869,26.92,-2.63395,-0.0335278,-0.000238756
DSC02568.JPG,2015-06-12T22:15:59,58.69712034,-93.3994812,25.64,-2.59143,-0.00968499,0.0350656
DSC02569.JPG,2015-06-12T22:16:00,58.69694945,-93.3992875,25.89,-2.59906,-0.0976554,0.00913124
DSC02570.JPG,2015-06-12T22:16:01,58.69677077,-93.39909043,26.27,-2.62961,-0.107477,-0.0432554
DSC02571.JPG,2015-06-12T22:16:02,58.69663808,-93.39894444,27.08,-2.62169,-0.0928718,-0.0180502
DSC02572.JPG,2015-06-12T22:16:03,58.69648568,-93.39877295,27.81,-2.59876,-0.0914321,-0.00296695
DSC02573.JPG,2015-06-12T22:16:04,58.6962981,-93.39855934,28.19,-2.61586,-0.0686765,0.0509702
DSC02574.JPG,2015-06-12T22:16:05,58.69615365,-93.39839745,28.47,-2.61758,-0.0439053,0.0798694
DSC02575.JPG,2015-06-12T22:16:06,58.69598221,-93.39821486,28.01,-2.62635,-0.0373708,-0.0133941
DSC02576.JPG,2015-06-12T22:16:07,58.69583517,-93.39806017,27.56,-2.61369,-0.0611945,0.0541663
DSC02577.JPG,2015-06-12T22:16:08,58.69567077,-93.39788749,27.77,-2.62498,-0.0547264,-0.0249292
DSC02578.JPG,2015-06-12T22:16:09,58.6955171,-93.39771897,28.04,-2.60661,-0.0839864,0.0448523
DSC02579.JPG,2015-06-12T22:16:10,58.6953619,-93.39754691,28.3,-2.61422,-0.0770734,0.0209683
DSC02580.JPG,2015-06-12T22:16:11,58.69519505,-93.39736628,28.58,-2.63457,-0.0656024,0.00982885
DSC02581.JPG,2015-06-12T22:16:12,58.69506737,-93.3972283,29.0,-2.61554,-0.0840124,0.0137122
DSC02582.JPG,2015-06-12T22:16:13,58.69490718,-93.39705404,29.42,-2.60697,-0.0652978,0.00968532
DSC02583.JPG,2015-06-12T22:16:14,58.69473546,-93.39686324,29.0,-2.61511,-0.0545558,-0.0550466
DSC02584.JPG,2015-06-12T22:16:15,58.69459697,-93.39670376,28.29,-2.59912,-0.0195616,-0.00962794
DSC02585.JPG,2015-06-12T22:16:16,58.69443096,-93.39650875,27.58,-2.60094,-0.007807,0.0478415
DSC02586.JPG,2015-06-12T22:16:18,58.6942936,-93.39635011,26.42,-2.59671,-0.0763694,0.0217594
DSC02587.JPG,2015-06-12T22:16:19,58.69412564,-93.39615659,25.58,-2.608,-0.0793596,0.0550466
DSC02588.JPG,2015-06-12T22:16:20,58.69395863,-93.39596866,25.99,-2.60065,-0.112741,0.012716
DSC02589.JPG,2015-06-12T22:16:21,58.69379938,-93.39579128,26.49,-2.6014,-0.124378,0.0186262
DSC02590.JPG,2015-06-12T22:16:22,58.69363505,-93.39561073,27.3,-2.64684,-0.139848,-0.0322244
DSC02591.JPG,2015-06-12T22:16:23,58.69350364,-93.39546787,28.14,-2.63246,-0.0709075,-0.0282625
DSC02592.JPG,2015-06-12T22:16:24,58.69332586,-93.39527061,27.64,-2.60524,-0.0791675,-0.0664039
DSC02593.JPG,2015-06-12T22:16:25,58.69315419,-93.39507065,28.19,-2.54884,-0.0511754,0.0941364
DSC02594.JPG,2015-06-12T22:16:26,58.69300402,-93.39489378,28.91,-2.56998,-0.0730336,0.124507
DSC02595.JPG,2015-06-12T22:16:50,58.69326654,-93.39458379,30.09,-5.54877,-0.820875,-0.406179
DSC02596.JPG,2015-06-12T22:16:51,58.69343168,-93.39480162,29.71,-5.67974,-0.731188,-0.00730477
DSC02597.JPG,2015-06-12T22:16:52,58.69364075,-93.39505955,28.64,-5.74166,-0.244209,-0.280047
DSC02598.JPG,2015-06-12T22:16:53,58.69380466,-93.39524439,27.75,-5.69313,0.443454,-0.643368
DSC02599.JPG,2015-06-12T22:16:54,58.69404566,-93.39550973,26.92,-5.70804,0.43055,-0.526947
DSC02600.JPG,2015-06-12T22:16:55,58.69424764,-93.3957367,25.86,-5.66013,0.620691,-0.603843
DSC02601.JPG,2015-06-12T22:16:56,58.69444205,-93.39596096,25.43,-5.64805,0.553097,-0.756295
DSC02602.JPG,2015-06-12T22:16:57,58.69465663,-93.39621534,25.29,-5.65989,0.0257295,-0.866047
DSC02603.JPG,2015-06-12T22:16:58,58.69484178,-93.39643791,25.15,-5.64571,0.256849,-0.884709
DSC02604.JPG,2015-06-12T22:16:59,58.69505346,-93.3966965,25.01,-5.68327,-0.558827,-0.410024
DSC02605.JPG,2015-06-12T22:17:00,58.69526493,-93.39694601,24.87,-5.69739,-0.204275,-0.596934
DSC02606.JPG,2015-06-12T22:17:01,58.69542888,-93.39713256,24.73,-5.74185,-0.0735813,-0.535021
DSC02607.JPG,2015-06-12T22:17:02,58.69564266,-93.39737099,24.59,-5.71893,0.22835,-0.584317
DSC02608.JPG,2015-06-12T22:17:03,58.69582126,-93.3975672,24.32,-5.71858,-0.166897,-0.6655
DSC02609.JPG,2015-06-12T22:17:04,58.69607547,-93.39784195,23.94,-5.68923,-0.185892,-0.963576
DSC02610.JPG,2015-06-12T22:17:05,58.69627167,-93.39804608,23.55,-5.64381,0.353448,-1.08918
DSC02611.JPG,2015-06-12T22:17:06,58.69648574,-93.39827196,24.75,-5.58541,0.047221,-1.30505
DSC02612.JPG,2015-06-12T22:17:07,58.69667728,-93.39848119,26.42,-5.54663,0.637709,-1.47982
DSC02613.JPG,2015-06-12T22:17:08,58.69688314,-93.39871558,27.8,-5.70647,0.192262,-0.663308
DSC02614.JPG,2015-06-12T22:17:09,58.69707391,-93.39893706,28.46,-5.72044,0.13556,-0.525684
DSC02615.JPG,2015-06-12T22:17:10,58.69726239,-93.3991576,27.96,-5.74311,-0.144745,0.273388
DSC02616.JPG,2015-06-12T22:17:11,58.6974734,-93.39939785,27.31,-5.75666,0.162799,0.0456049
DSC02617.JPG,2015-06-12T22:17:12,58.69768619,-93.39962547,25.64,-5.78682,0.156178,-0.142104
DSC02618.JPG,2015-06-12T22:17:13,58.69785528,-93.39980493,25.89,-5.56793,0.508074,-1.27594
DSC02619.JPG,2015-06-12T22:17:14,58.69808215,-93.40005589,26.27,-5.4254,-0.17878,-1.66349
DSC02620.JPG,2015-06-12T22:17:15,58.69825772,-93.40025818,27.08,-5.54586,-0.398549,-1.27218
DSC02621.JPG,2015-06-12T22:17:16,58.69846508,-93.40050016,28.46,-5.60848,0.0294999,-0.974906
DSC02622.JPG,2015-06-12T22:17:17,58.69866998,-93.40074095,27.96,-5.70697,-0.087672,-0.533839
DSC02623.JPG,2015-06-12T22:17:18,58.69886498,-93.40096758,27.42,-5.71212,-0.484013,-0.397139
DSC02624.JPG,2015-06-12T22:17:19,58.69905553,-93.40118176,26.58,-5.72454,-0.332877,-0.519329
DSC02625.JPG,2015-06-12T22:17:20,58.69921169,-93.40135156,25.75,-5.71034,-0.0796573,-0.69172
DSC02626.JPG,2015-06-12T22:17:47,58.69920651,-93.40082667,28.97,-2.74194,-0.0703233,-0.0245763
DSC02627.JPG,2015-06-12T22:17:48,58.69902705,-93.4006767,29.29,-2.70071,-0.0238061,-0.054471
DSC02628.JPG,2015-06-12T22:17:49,58.69884543,-93.40051566,28.58,-2.66681,-0.00155867,-0.158996
DSC02629.JPG,2015-06-12T22:17:50,58.69871109,-93.40038089,27.67,-2.59363,-0.0335318,-0.00742026
DSC02630.JPG,2015-06-12T22:17:51,58.69855646,-93.40021107,28.08,-2.61019,-0.0851657,0.0238901
DSC02631.JPG,2015-06-12T22:17:52,58.69836555,-93.40000258,28.5,-2.59965,-0.132352,0.0338035
DSC02632.JPG,2015-06-12T22:17:53,58.69822068,-93.3998497,30.36,-2.69357,-0.0320031,-0.0467856
DSC02633.JPG,2015-06-12T22:17:54,58.69805299,-93.39967068,28.97,-2.65917,0.0146877,-0.0866642
DSC02634.JPG,2015-06-12T22:17:55,58.69791031,-93.39951,26.7,-2.60589,0.000303202,-0.0552976
DSC02635.JPG,2015-06-12T22:17:56,58.69774966,-93.39932139,24.97,-2.56724,-0.0205892,-0.0423356
DSC02636.JPG,2015-06-12T22:17:57,58.6975964,-93.39912998,23.43,-2.55707,-0.0844791,-0.00190113
DSC02637.JPG,2015-06-12T22:17:58,58.69747381,-93.39897356,22.72,-2.57491,-0.0668335,0.0421063
DSC02638.JPG,2015-06-12T22:17:59,58.69726485,-93.39871532,23.14,-2.58492,-0.110618,0.036852
DSC02639.JPG,2015-06-12T22:18:00,58.69713182,-93.39855626,23.82,-2.59705,-0.120387,0.0128338
DSC02640.JPG,2015-06-12T22:18:01,58.69696294,-93.39835896,24.38,-2.61048,-0.092485,0.0240564
DSC02641.JPG,2015-06-12T22:18:02,58.69678049,-93.39814537,25.05,-2.60087,-0.102067,0.0496053
DSC02642.JPG,2015-06-12T22:18:03,58.69662996,-93.39797564,25.94,-2.65864,-0.0778945,0.0716807
DSC02643.JPG,2015-06-12T22:18:04,58.69644741,-93.3977761,27.42,-2.64904,-0.0907729,0.0566007
DSC02644.JPG,2015-06-12T22:18:05,58.69629994,-93.39762039,28.75,-2.65837,-0.141226,0.0252305
DSC02645.JPG,2015-06-12T22:18:06,58.69613014,-93.39744282,31.3,-2.62763,-0.0593264,0.0177077
DSC02646.JPG,2015-06-12T22:18:07,58.69597213,-93.39727952,33.08,-2.64504,-0.014914,-0.0497894
DSC02647.JPG,2015-06-12T22:18:08,58.69585712,-93.39715798,34.44,-2.64316,0.0909622,-0.0487921
DSC02648.JPG,2015-06-12T22:18:09,58.69568479,-93.39697064,32.97,-2.66507,0.0855806,0.00170815
DSC02649.JPG,2015-06-12T22:18:10,58.69556733,-93.39683861,31.92,-2.60739,0.0583526,0.0263841
DSC02650.JPG,2015-06-12T22:18:11,58.69540436,-93.39665756,30.77,-2.62321,0.0556974,0.012495
DSC02651.JPG,2015-06-12T22:18:12,58.6952404,-93.39647686,29.31,-2.60461,0.0370295,-0.0216116
DSC02652.JPG,2015-06-12T22:18:13,58.69510255,-93.39632127,27.2,-2.6031,-0.0187599,-0.0265618
DSC02653.JPG,2015-06-12T22:18:14,58.6949349,-93.39612588,25.09,-2.60889,-0.0432545,-0.00894044
DSC02654.JPG,2015-06-12T22:18:15,58.6947648,-93.39592465,22.64,-2.59281,-0.0666962,0.0251166
DSC02655.JPG,2015-06-12T22:18:16,58.6945958,-93.39572754,22.82,-2.59658,-0.109432,0.0788037
DSC02656.JPG,2015-06-12T22:18:17,58.69445466,-93.39556801,23.13,-2.60535,-0.0890015,0.0380698
DSC02657.JPG,2015-06-12T22:18:18,58.69426588,-93.39535481,23.44,-2.60162,-0.139015,0.0259692
DSC02658.JPG,2015-06-12T22:18:19,58.69409969,-93.39516822,24.14,-2.60719,-0.16482,0.0843299
DSC02659.JPG,2015-06-12T22:18:20,58.69394489,-93.39499836,25.41,-2.60706,-0.130538,0.0303089
DSC02660.JPG,2015-06-12T22:18:21,58.69377383,-93.39481489,26.3,-2.63751,-0.108144,-0.0360726
DSC02661.JPG,2015-06-12T22:18:22,58.69361281,-93.39463713,26.83,-2.62837,-0.10376,0.0382281
DSC02662.JPG,2015-06-12T22:18:23,58.69345303,-93.39445843,27.25,-2.61117,-0.114837,0.0730882
DSC02663.JPG,2015-06-12T22:18:24,58.693281,-93.39427007,27.76,-2.61597,-0.108739,0.0446609
DSC02664.JPG,2015-06-12T22:18:25,58.693137,-93.39411576,28.48,-2.6182,-0.0559662,0.0078605
DSC02665.JPG,2015-06-12T22:18:26,58.6929667,-93.39393251,28.82,-2.62998,-0.0767798,-0.0577756
DSC02666.JPG,2015-06-12T22:18:52,58.69328787,-93.39362355,33.71,-5.44871,-0.754642,0.564186
DSC02667.JPG,2015-06-12T22:18:53,58.69343713,-93.39388187,32.64,-5.50618,-0.504104,0.840987
DSC02668.JPG,2015-06-12T22:18:54,58.69361398,-93.39415283,28.42,-5.55252,-1.12236,0.218866
DSC02669.JPG,2015-06-12T22:18:55,58.69381746,-93.39440425,26.51,-5.64028,-0.654269,-0.878601
DSC02670.JPG,2015-06-12T22:18:56,58.69402773,-93.39463337,26.34,-5.6667,-0.315025,-1.00469
DSC02671.JPG,2015-06-12T22:18:57,58.69422522,-93.3948431,26.17,-5.7416,0.30715,-0.550332
DSC02672.JPG,2015-06-12T22:18:58,58.69436647,-93.39499414,26.01,-5.70794,0.0686349,-0.781271
DSC02673.JPG,2015-06-12T22:18:59,58.69459934,-93.39524824,25.84,-5.73833,0.22348,-0.319219
DSC02674.JPG,2015-06-12T22:19:00,58.69477738,-93.39544707,25.67,-5.70953,0.218776,-0.223731
DSC02675.JPG,2015-06-12T22:19:01,58.69497224,-93.3956674,25.63,-5.72504,-0.101853,-0.447968
DSC02676.JPG,2015-06-12T22:19:02,58.69516585,-93.39588488,26.4,-5.67904,0.192395,-0.961059
DSC02677.JPG,2015-06-12T22:19:03,58.69535175,-93.39609577,27.17,-5.63417,-0.143571,-0.986664
DSC02678.JPG,2015-06-12T22:19:04,58.69553735,-93.39630985,27.31,-5.68225,-0.139423,-0.567484
DSC02679.JPG,2015-06-12T22:19:05,58.6957271,-93.39653073,26.89,-5.73329,-0.0635459,-0.390357
DSC02680.JPG,2015-06-12T22:19:06,58.69593755,-93.3967748,26.46,-5.75005,-0.146648,-0.397435
DSC02681.JPG,2015-06-12T22:19:07,58.6961055,-93.39696705,25.96,-5.75691,-0.0500489,-0.356787
DSC02682.JPG,2015-06-12T22:19:08,58.69629453,-93.39717925,25.31,-5.69312,-0.206602,-0.82058
DSC02683.JPG,2015-06-12T22:19:09,58.69653351,-93.39744537,24.91,-5.64894,-0.0150502,-1.01668
DSC02684.JPG,2015-06-12T22:19:10,58.69671831,-93.39765218,25.55,-5.63172,-0.405867,-1.08469
DSC02685.JPG,2015-06-12T22:19:11,58.69693532,-93.3978967,25.69,-5.66818,0.354422,-0.843036
DSC02686.JPG,2015-06-12T22:19:12,58.69712099,-93.39810842,25.82,-5.65577,-0.463668,-0.877408
DSC02687.JPG,2015-06-12T22:19:13,58.69732939,-93.39834624,25.96,-5.61968,-0.623922,-0.962486
DSC02688.JPG,2015-06-12T22:19:14,58.69752856,-93.39856634,26.1,-5.69628,-0.18426,-0.945463
DSC02689.JPG,2015-06-12T22:19:15,58.69773364,-93.39878991,26.24,-5.70391,-0.325335,-0.87083
DSC02690.JPG,2015-06-12T22:19:16,58.6979538,-93.39902948,26.38,-5.68297,-1.13335,-0.478953
DSC02691.JPG,2015-06-12T22:19:17,58.69812399,-93.39920533,26.52,-5.60788,-0.274325,-1.42108
DSC02692.JPG,2015-06-12T22:19:18,58.69834366,-93.39941366,28.08,-5.51231,0.467126,-1.65217
DSC02693.JPG,2015-06-12T22:19:19,58.69857578,-93.39965078,28.86,-5.59605,0.392746,-1.21585
DSC02694.JPG,2015-06-12T22:19:20,58.69876,-93.3998569,29.32,-5.58485,0.123595,-1.19808
DSC02695.JPG,2015-06-12T22:19:21,58.69897538,-93.40011197,29.91,-5.63493,-0.698559,-0.710316
DSC02696.JPG,2015-06-12T22:19:23,58.69914568,-93.4003157,30.56,-5.69418,-0.122455,-0.704408
DSC02697.JPG,2015-06-12T22:19:24,58.69934745,-93.40055218,30.79,-5.72151,0.256081,-0.301243
DSC02698.JPG,2015-06-12T22:19:25,58.6995417,-93.40078242,31.01,-5.66633,0.18103,-0.531041
DSC02699.JPG,2015-06-12T22:19:26,58.69972543,-93.40099826,31.24,-5.73768,-0.525255,0.109556
DSC02700.JPG,2015-06-12T22:19:52,58.69971948,-93.40039383,25.69,-2.70972,-0.111138,-0.0712071
DSC02701.JPG,2015-06-12T22:19:53,58.69957388,-93.40025567,27.08,-2.71515,-0.107026,-0.0546638
DSC02702.JPG,2015-06-12T22:19:54,58.69939861,-93.40008473,28.75,-2.70327,-0.0784839,0.0575196
DSC02703.JPG,2015-06-12T22:19:55,58.69922113,-93.39991828,30.42,-2.72302,-0.0937887,-0.0213071
DSC02704.JPG,2015-06-12T22:19:56,58.69907777,-93.39978242,30.32,-2.68318,-0.0783126,-0.0144028
DSC02705.JPG,2015-06-12T22:19:57,58.69890967,-93.39961642,30.09,-2.64644,-0.0476067,-0.118872
DSC02706.JPG,2015-06-12T22:19:58,58.69878409,-93.39948112,29.86,-2.67038,0.0134572,-0.0546208
DSC02707.JPG,2015-06-12T22:19:59,58.69860129,-93.39927082,29.63,-2.59721,-0.00963119,0.0179259
DSC02708.JPG,2015-06-12T22:20:00,58.69844811,-93.39909177,28.86,-2.61189,-0.0344812,0.0275261
DSC02709.JPG,2015-06-12T22:20:01,58.69830121,-93.39891912,29.05,-2.58879,-0.000574231,0.0262792
DSC02710.JPG,2015-06-12T22:20:02,58.69813788,-93.39873091,29.74,-2.63978,-0.0635437,0.00394551
DSC02711.JPG,2015-06-12T22:20:03,58.69799621,-93.39857569,30.36,-2.64514,-0.029126,0.0452887
DSC02712.JPG,2015-06-12T22:20:04,58.69782868,-93.39839876,29.92,-2.64563,-0.0347807,-0.0668999
DSC02713.JPG,2015-06-12T22:20:05,58.69766074,-93.39821746,28.64,-2.63259,-0.0483671,0.00167196
DSC02714.JPG,2015-06-12T22:20:06,58.6975307,-93.39807335,26.25,-2.62842,-0.0790717,-0.00644046
DSC02715.JPG,2015-06-12T22:20:07,58.6973624,-93.39788322,25.31,-2.61696,-0.0815985,0.00897971
DSC02716.JPG,2015-06-12T22:20:08,58.69722388,-93.39772517,24.08,-2.59009,-0.0809134,0.040691
DSC02717.JPG,2015-06-12T22:20:09,58.69702619,-93.39749429,23.77,-2.60909,-0.102527,0.0453112
DSC02718.JPG,2015-06-12T22:20:10,58.69687101,-93.39731668,24.48,-2.59869,-0.175854,0.02966
DSC02719.JPG,2015-06-12T22:20:11,58.69670312,-93.39712903,26.75,-2.64347,-0.172245,0.0253943
DSC02720.JPG,2015-06-12T22:20:12,58.69654234,-93.39695045,28.19,-2.63573,-0.0798848,0.0276661
DSC02721.JPG,2015-06-12T22:20:13,58.69639055,-93.39678266,28.36,-2.60885,-0.0496712,0.0268886
DSC02722.JPG,2015-06-12T22:20:14,58.69623246,-93.39660655,28.13,-2.61501,-0.0716051,0.0256751
DSC02723.JPG,2015-06-12T22:20:15,58.69606737,-93.39642268,27.91,-2.63023,-0.0562525,0.00332666
DSC02724.JPG,2015-06-12T22:20:16,58.69593191,-93.39627223,27.68,-2.6284,-0.0294124,0.0433481
DSC02725.JPG,2015-06-12T22:20:17,58.69577339,-93.39609953,27.46,-2.63762,-0.05005,0.0280028
DSC02726.JPG,2015-06-12T22:20:18,58.6956215,-93.39593666,27.25,-2.64443,-0.0877113,0.0336654
DSC02727.JPG,2015-06-12T22:20:19,58.69543565,-93.39574181,27.04,-2.6352,-0.0978464,0.000359166
DSC02728.JPG,2015-06-12T22:20:20,58.69530795,-93.39560719,26.83,-2.62325,-0.0428612,0.048769
DSC02729.JPG,2015-06-12T22:20:21,58.69514448,-93.39543104,26.63,-2.6233,0.00404868,0.020193
DSC02730.JPG,2015-06-12T22:20:22,58.6949743,-93.39524804,25.64,-2.62537,-0.0993383,-0.0867889
DSC02731.JPG,2015-06-12T22:20:23,58.69481133,-93.39506711,25.89,-2.62104,-0.0689336,0.00162844
DSC02732.JPG,2015-06-12T22:20:24,58.69465578,-93.39489031,26.27,-2.59951,-0.126376,0.00887885
DSC02733.JPG,2015-06-12T22:20:25,58.6945308,-93.39474704,27.08,-2.61035,-0.117459,0.0332007
DSC02734.JPG,2015-06-12T22:20:26,58.69434967,-93.39454254,27.77,-2.61655,-0.0584246,-0.0135491
DSC02735.JPG,2015-06-12T22:20:27,58.69420804,-93.39438326,28.11,-2.62054,-0.0562822,0.0485463
DSC02736.JPG,2015-06-12T22:20:28,58.69405111,-93.39420803,28.44,-2.67532,-0.0562024,0.0469815
DSC02737.JPG,2015-06-12T22:20:29,58.69388478,-93.39403324,28.28,-2.63678,-0.0257496,-0.13614
DSC02738.JPG,2015-06-12T22:20:30,58.69375224,-93.39388757,27.95,-2.63112,0.0192719,-0.0153899
DSC02739.JPG,2015-06-12T22:20:31,58.6935991,-93.39370425,27.62,-2.556,-0.0159313,0.0565654
DSC02740.JPG,2015-06-12T22:20:32,58.69342866,-93.39349202,25.59,-2.53416,-0.117857,0.0925344
DSC02741.JPG,2015-06-12T22:20:34,58.69325582,-93.39328636,26.09,-2.61086,-0.087445,0.0580235
DSC02742.JPG,2015-06-12T22:20:35,58.69309562,-93.39310486,26.64,-2.62979,-0.113225,0.0362398
DSC02743.JPG,2015-06-12T22:20:36,58.69297482,-93.39296927,27.47,-2.65469,-0.118411,0.0499241
DSC02744.JPG,2015-06-12T22:20:59,58.69328318,-93.39268401,35.29,-5.5008,-0.781365,0.0986468
DSC02745.JPG,2015-06-12T22:21:00,58.69343691,-93.39292884,34.58,-5.53112,-1.00649,0.582691
DSC02746.JPG,2015-06-12T22:21:01,58.69361661,-93.39318151,33.25,-5.51807,-1.41558,0.193843
DSC02747.JPG,2015-06-12T22:21:02,58.69382262,-93.39341573,32.36,-5.77115,0.13302,-0.241627
DSC02748.JPG,2015-06-12T22:21:03,58.69402889,-93.39363423,30.42,-5.71357,0.68723,0.342003
DSC02749.JPG,2015-06-12T22:21:05,58.6941953,-93.39380674,25.31,-5.78124,0.254828,-0.315515
DSC02750.JPG,2015-06-12T22:21:06,58.69437403,-93.3939903,23.64,-5.54927,0.577333,-1.53152
DSC02751.JPG,2015-06-12T22:21:07,58.69462734,-93.39425979,24.3,-5.59452,0.129358,-1.17646
DSC02752.JPG,2015-06-12T22:21:08,58.69481872,-93.39447123,25.44,-5.58698,0.227744,-1.01355
DSC02753.JPG,2015-06-12T22:21:09,58.6950259,-93.39470889,25.95,-5.66702,-0.0459642,-0.940941
DSC02754.JPG,2015-06-12T22:21:10,58.69522589,-93.39494759,26.41,-5.56555,0.423624,-1.13489
DSC02755.JPG,2015-06-12T22:21:11,58.69541349,-93.39517759,27.6,-5.6786,0.00339812,-0.545389
DSC02756.JPG,2015-06-12T22:21:12,58.69560566,-93.39541498,28.16,-5.69002,-0.000620623,-0.371098
DSC02757.JPG,2015-06-12T22:21:13,58.69578263,-93.39563099,28.42,-5.68752,-0.512061,-0.304092
DSC02758.JPG,2015-06-12T22:21:14,58.69603014,-93.39592265,28.11,-5.6294,-0.536543,-0.874
DSC02759.JPG,2015-06-12T22:21:15,58.69618937,-93.39610628,27.8,-5.70106,-0.254508,-0.522625
DSC02760.JPG,2015-06-12T22:21:16,58.69637304,-93.39631327,27.42,-5.73139,0.00838188,-0.337851
DSC02761.JPG,2015-06-12T22:21:17,58.69660265,-93.39656776,26.58,-5.73937,-0.0561891,-0.491736
DSC02762.JPG,2015-06-12T22:21:18,58.69678197,-93.39676336,25.48,-5.74424,0.104883,-0.561176
DSC02763.JPG,2015-06-12T22:21:19,58.69699679,-93.3969911,25.12,-5.59929,0.791612,-1.05138
DSC02764.JPG,2015-06-12T22:21:20,58.69718097,-93.39719112,24.77,-5.66621,0.159149,-0.866885
DSC02765.JPG,2015-06-12T22:21:21,58.69738766,-93.39742351,23.97,-5.72027,0.0798772,-0.597232
DSC02766.JPG,2015-06-12T22:21:22,58.69758619,-93.39764796,23.89,-5.66084,-0.415193,-0.789392
DSC02767.JPG,2015-06-12T22:21:23,58.69774434,-93.39782687,24.39,-5.55432,-0.413287,-1.26022
DSC02768.JPG,2015-06-12T22:21:24,58.69800513,-93.39811614,25.14,-5.68375,0.612932,-0.684541
DSC02769.JPG,2015-06-12T22:21:25,58.69817066,-93.39830289,25.73,-5.74815,0.0755056,-0.534873
DSC02770.JPG,2015-06-12T22:21:26,58.69838409,-93.39854688,26.12,-5.63584,-0.502026,-1.03298
DSC02771.JPG,2015-06-12T22:21:27,58.69862494,-93.39881943,26.5,-5.52573,-1.19847,-0.977213
DSC02772.JPG,2015-06-12T22:21:28,58.69880092,-93.39901217,28.94,-5.64241,0.0332312,-0.834631
DSC02773.JPG,2015-06-12T22:21:29,58.69902145,-93.39925302,29.15,-5.72691,-0.476182,0.0355085
DSC02774.JPG,2015-06-12T22:21:30,58.69920076,-93.39944853,28.6,-5.71246,-0.274496,-0.329766
DSC02775.JPG,2015-06-12T22:21:31,58.69942194,-93.39967791,29.16,-5.56027,-0.271647,-1.31069
DSC02776.JPG,2015-06-12T22:21:32,58.69963222,-93.39990463,30.08,-5.66313,-0.669702,-0.671357
DSC02777.JPG,2015-06-12T22:21:33,58.69977486,-93.40006331,30.01,-5.69809,0.228903,-0.644433
DSC02778.JPG,2015-06-12T22:21:34,58.70000881,-93.40032767,28.97,-5.70976,0.154219,-0.375719
DSC02779.JPG,2015-06-12T22:22:00,58.69994322,-93.39976086,21.75,-2.70536,-0.137615,-0.0252984
DSC02780.JPG,2015-06-12T22:22:01,58.6997927,-93.3996191,22.97,-2.63947,-0.139607,-0.0595268
DSC02781.JPG,2015-06-12T22:22:02,58.69962226,-93.3994508,24.08,-2.61299,-0.159074,-0.0770104
DSC02782.JPG,2015-06-12T22:22:03,58.69943916,-93.3992583,25.44,-2.60188,-0.0562414,0.0418598
DSC02783.JPG,2015-06-12T22:22:04,58.69927745,-93.39908579,26.8,-2.62623,-0.0826325,0.0494317
DSC02784.JPG,2015-06-12T22:22:05,58.69914669,-93.3989477,27.75,-2.63205,-0.00808435,-0.0591965
DSC02785.JPG,2015-06-12T22:22:07,58.69898286,-93.39877263,27.64,-2.59653,0.015553,-0.0412322
DSC02786.JPG,2015-06-12T22:22:08,58.69884749,-93.39862254,28.19,-2.6331,-0.00238065,0.019215
DSC02787.JPG,2015-06-12T22:22:09,58.69868322,-93.39843974,29.42,-2.60229,-0.0581625,-0.0290899
DSC02788.JPG,2015-06-12T22:22:10,58.69852751,-93.39825821,30.3,-2.58132,-0.00322654,0.0729934
DSC02789.JPG,2015-06-12T22:22:11,58.69838357,-93.39809252,31.97,-2.56817,-0.0628379,0.0943296
DSC02790.JPG,2015-06-12T22:22:12,58.69824037,-93.39793543,32.86,-2.59243,0.070132,0.0213868
DSC02791.JPG,2015-06-12T22:22:13,58.69810898,-93.39779286,30.87,-2.60553,0.109636,-0.0283541
DSC02792.JPG,2015-06-12T22:22:14,58.69796227,-93.39762705,26.76,-2.58742,0.00885864,-0.0104183
DSC02793.JPG,2015-06-12T22:22:15,58.69780274,-93.39743672,24.42,-2.58188,-0.0469556,0.0503386
DSC02794.JPG,2015-06-12T22:22:16,58.6976637,-93.39727101,24.08,-2.58525,-0.0716714,0.0313595
DSC02795.JPG,2015-06-12T22:22:17,58.6974951,-93.39707613,23.75,-2.60031,-0.0528649,0.0246653
DSC02796.JPG,2015-06-12T22:22:18,58.69736234,-93.39692276,23.25,-2.60371,-0.0469547,0.0248069
DSC02797.JPG,2015-06-12T22:22:19,58.69719698,-93.396733,22.58,-2.58659,-0.0628845,0.0284011
DSC02798.JPG,2015-06-12T22:22:20,58.69702957,-93.39654166,23.0,-2.6011,-0.0997082,0.0135477
DSC02799.JPG,2015-06-12T22:22:21,58.696867,-93.39635569,23.42,-2.61701,-0.0914599,0.0152954
DSC02800.JPG,2015-06-12T22:22:22,58.69672155,-93.39618894,22.61,-2.60861,-0.0362155,0.0545464
DSC02801.JPG,2015-06-12T22:22:23,58.6965914,-93.39604293,22.76,-2.6506,-0.0784246,0.0453039
DSC02802.JPG,2015-06-12T22:22:24,58.69639538,-93.39583087,23.01,-2.63967,-0.113733,0.0389007
DSC02803.JPG,2015-06-12T22:22:25,58.69623054,-93.39565546,23.26,-2.64576,-0.119128,0.0469462
DSC02804.JPG,2015-06-12T22:22:26,58.69607365,-93.39548942,23.51,-2.63372,-0.109724,0.0269878
DSC02805.JPG,2015-06-12T22:22:27,58.69590145,-93.39530828,24.19,-2.63217,-0.0473081,0.0512706
DSC02806.JPG,2015-06-12T22:22:28,58.69575264,-93.39515258,24.23,-2.63426,-0.120035,0.0433513
DSC02807.JPG,2015-06-12T22:22:29,58.6955844,-93.39497528,23.68,-2.6216,-0.100935,-0.0396425
DSC02808.JPG,2015-06-12T22:22:30,58.6954014,-93.39477195,24.05,-2.61616,-0.152437,0.00653209
DSC02809.JPG,2015-06-12T22:22:31,58.69522058,-93.39456157,25.08,-2.59371,-0.153389,0.078805
DSC02810.JPG,2015-06-12T22:22:32,58.6950805,-93.39440226,26.75,-2.60815,-0.156473,0.0552162
DSC02811.JPG,2015-06-12T22:22:33,58.69493744,-93.39424553,29.3,-2.58331,-0.123903,0.0553709
DSC02812.JPG,2015-06-12T22:22:34,58.69474038,-93.39403209,31.63,-2.62191,-0.0874713,0.0456279
DSC02813.JPG,2015-06-12T22:22:35,58.69459328,-93.39387558,32.2,-2.65341,-0.042996,0.0878219
DSC02814.JPG,2015-06-12T22:22:36,58.69443566,-93.39371197,31.74,-2.6533,-0.0254543,-0.0797587
DSC02815.JPG,2015-06-12T22:22:37,58.69428204,-93.39354868,30.86,-2.62368,0.00143551,-0.0273951
DSC02816.JPG,2015-06-12T22:22:38,58.69413628,-93.39338376,29.31,-2.6243,-0.0360351,-0.00563431
DSC02817.JPG,2015-06-12T22:22:39,58.6939862,-93.39321143,28.97,-2.57966,-0.085178,0.040505
DSC02818.JPG,2015-06-12T22:22:40,58.69382417,-93.39302272,29.29,-2.57524,-0.0161781,0.0408483
DSC02819.JPG,2015-06-12T22:22:41,58.69365603,-93.39282713,28.58,-2.56522,-0.0209733,0.0163161
DSC02820.JPG,2015-06-12T22:22:42,58.69352794,-93.39267794,30.08,-2.6209,-0.0878061,0.0259927
DSC02821.JPG,2015-06-12T22:22:43,58.69337761,-93.39251018,31.97,-2.67055,-0.0422375,0.0821444
DSC02822.JPG,2015-06-12T22:22:44,58.69319047,-93.39231493,33.15,-2.66785,-0.0116655,-0.0775967
DSC02823.JPG,2015-06-12T22:22:45,58.69304683,-93.39216596,32.47,-2.63539,-0.00588339,-0.0447323
DSC02824.JPG,2015-06-12T22:23:10,58.69322096,-93.39173705,39.04,-5.39955,-1.27038,0.626025
DSC02825.JPG,2015-06-12T22:23:11,58.69341304,-93.39203259,39.42,-5.67094,-0.338976,0.0604015
DSC02826.JPG,2015-06-12T22:23:12,58.69357017,-93.39224009,40.45,-5.69308,-0.486188,0.203591
DSC02827.JPG,2015-06-12T22:23:13,58.69373206,-93.39243958,39.9,-5.67105,-0.387161,0.940102
DSC02828.JPG,2015-06-12T22:23:14,58.69396605,-93.39270277,38.97,-5.78477,0.552566,0.237734
DSC02829.JPG,2015-06-12T22:23:15,58.69414961,-93.39289624,38.2,-5.60514,1.38709,-0.378375
DSC02830.JPG,2015-06-12T22:23:16,58.69434706,-93.39311184,37.74,-5.71549,-0.254676,-0.048869
DSC02831.JPG,2015-06-12T22:23:17,58.69453674,-93.39332271,37.15,-5.74976,0.088185,0.161216
DSC02832.JPG,2015-06-12T22:23:18,58.69471672,-93.3935184,36.09,-5.69582,0.345586,0.688888
DSC02833.JPG,2015-06-12T22:23:19,58.69490584,-93.39371905,33.2,-5.77134,0.157575,0.283914
DSC02834.JPG,2015-06-12T22:23:20,58.69511147,-93.39392752,31.31,-5.7859,0.57163,0.0892256
DSC02835.JPG,2015-06-12T22:23:21,58.69527798,-93.39409626,29.64,-5.72857,0.874716,0.0690735
DSC02836.JPG,2015-06-12T22:23:22,58.69546885,-93.39429641,27.97,-5.7388,0.335367,-0.0655185
DSC02837.JPG,2015-06-12T22:23:23,58.69564733,-93.39449157,26.31,-5.71244,0.387171,0.478342
DSC02838.JPG,2015-06-12T22:23:24,58.69586915,-93.39474028,23.76,-5.71676,0.444786,0.341172
DSC02839.JPG,2015-06-12T22:23:25,58.69604323,-93.39493838,21.36,-5.74469,0.0604895,0.0345547
DSC02840.JPG,2015-06-12T22:23:26,58.69625212,-93.39517762,19.42,-5.73348,0.107083,-0.0370024
DSC02841.JPG,2015-06-12T22:23:27,58.69643852,-93.39539004,17.61,-5.69747,0.359046,-0.166087
DSC02842.JPG,2015-06-12T22:23:28,58.69664947,-93.39562699,16.31,-5.75018,-0.591805,-0.0635103
DSC02843.JPG,2015-06-12T22:23:29,58.69685921,-93.39585697,15.82,-5.60933,0.0899107,-1.419
DSC02844.JPG,2015-06-12T22:23:30,58.69708018,-93.3960964,16.38,-5.48862,-0.515411,-1.57051
DSC02845.JPG,2015-06-12T22:23:31,58.69728662,-93.39633161,17.75,-5.48037,-0.17263,-1.58891
DSC02846.JPG,2015-06-12T22:23:32,58.69748201,-93.39656529,19.41,-5.54927,-0.337635,-1.25784
DSC02847.JPG,2015-06-12T22:23:33,58.69769396,-93.39682656,21.08,-5.54388,-0.58972,-1.20041
DSC02848.JPG,2015-06-12T22:23:34,58.69791973,-93.39710192,22.36,-5.64087,-0.823912,-0.508383
DSC02849.JPG,2015-06-12T22:23:35,58.69810447,-93.39731955,21.29,-5.68806,-0.676896,-0.269572
DSC02850.JPG,2015-06-12T22:23:36,58.69832904,-93.39756969,20.58,-5.74088,-0.0744654,-0.490435
DSC02851.JPG,2015-06-12T22:23:37,58.69850265,-93.39775707,19.81,-5.63533,-0.282236,-1.23118
DSC02852.JPG,2015-06-12T22:23:38,58.69873139,-93.39800004,21.19,-5.2035,-0.884182,-2.05209
DSC02853.JPG,2015-06-12T22:23:40,58.69894811,-93.3982342,27.08,-5.47788,0.345262,-1.58301
DSC02854.JPG,2015-06-12T22:23:41,58.69914132,-93.39845351,31.36,-5.75444,-0.132375,-0.112544
DSC02855.JPG,2015-06-12T22:23:42,58.69932032,-93.39865392,32.31,-5.77661,-0.4747,0.035368
DSC02856.JPG,2015-06-12T22:23:43,58.6995017,-93.39884483,31.89,-5.73104,0.228447,1.03782
DSC02857.JPG,2015-06-12T22:24:10,58.69970278,-93.39850546,25.47,-2.66781,-0.131611,-0.0775465
DSC02858.JPG,2015-06-12T22:24:11,58.69955557,-93.39835888,25.06,-2.67045,-0.0721183,0.0232556
DSC02859.JPG,2015-06-12T22:24:12,58.69935097,-93.39814968,24.64,-2.66501,-0.111957,0.0182029
DSC02860.JPG,2015-06-12T22:24:13,58.6991943,-93.39798605,24.7,-2.654,-0.12235,-0.026212
DSC02861.JPG,2015-06-12T22:24:14,58.69902656,-93.39780091,24.94,-2.65404,-0.102615,0.0358468
DSC02862.JPG,2015-06-12T22:24:15,58.69886342,-93.39761725,25.18,-2.59367,-0.114487,0.0211663
DSC02863.JPG,2015-06-12T22:24:16,58.69870574,-93.39743913,25.42,-2.6286,-0.12957,0.140121
DSC02864.JPG,2015-06-12T22:24:17,58.69854489,-93.39726503,26.42,-2.6279,-0.138747,0.0325433
DSC02865.JPG,2015-06-12T22:24:18,58.69837485,-93.39708595,27.94,-2.68135,-0.0295246,0.0622898
DSC02866.JPG,2015-06-12T22:24:19,58.69819997,-93.39690668,29.41,-2.65479,-0.0175577,0.187705
DSC02867.JPG,2015-06-12T22:24:20,58.69806496,-93.39677947,31.08,-2.66415,-0.0667281,-0.0346003
DSC02868.JPG,2015-06-12T22:24:21,58.69790835,-93.39663136,32.75,-2.63622,-0.09069,-0.0183108
DSC02869.JPG,2015-06-12T22:24:22,58.69772025,-93.3964396,34.41,-2.61182,-0.0745592,-0.0345504
DSC02870.JPG,2015-06-12T22:24:23,58.69758382,-93.39628993,36.69,-2.61988,-0.0604991,0.000984366
DSC02871.JPG,2015-06-12T22:24:24,58.69743334,-93.39612062,37.4,-2.59749,0.0727953,-0.0456091
DSC02872.JPG,2015-06-12T22:24:25,58.69730938,-93.39597907,37.02,-2.64938,0.149748,-0.14577
DSC02873.JPG,2015-06-12T22:24:26,58.69717455,-93.39581214,36.63,-2.57196,0.150507,0.00039266
DSC02874.JPG,2015-06-12T22:24:27,58.69704457,-93.39565237,34.09,-2.55872,0.155691,0.0978093
DSC02875.JPG,2015-06-12T22:24:28,58.69693648,-93.39552632,31.2,-2.60394,0.0598986,0.0286398
DSC02876.JPG,2015-06-12T22:24:29,58.69674363,-93.39532143,29.31,-2.66421,0.0110449,-0.0792428
DSC02877.JPG,2015-06-12T22:24:30,58.69661774,-93.3951901,27.64,-2.6603,0.00692966,-0.0396927
DSC02878.JPG,2015-06-12T22:24:31,58.69645747,-93.39501788,25.97,-2.61641,-0.00863529,0.0343516
DSC02879.JPG,2015-06-12T22:24:32,58.6962844,-93.39483042,25.27,-2.59612,0.00243803,-0.0157169
DSC02880.JPG,2015-06-12T22:24:33,58.69614393,-93.39467317,24.91,-2.58328,-0.0169527,-0.10586
DSC02881.JPG,2015-06-12T22:24:34,58.69597431,-93.39447208,24.55,-2.57447,-0.031853,0.0311015
DSC02882.JPG,2015-06-12T22:24:35,58.69583813,-93.39430736,23.31,-2.583,-0.0407123,0.0564821
DSC02883.JPG,2015-06-12T22:24:36,58.69567019,-93.394111,22.32,-2.5839,-0.0932845,0.0302767
DSC02884.JPG,2015-06-12T22:24:37,58.69550484,-93.39392453,21.94,-2.60579,-0.0479416,0.0198573
DSC02885.JPG,2015-06-12T22:24:38,58.69537803,-93.3937804,21.55,-2.58561,-0.0564409,0.00673279
DSC02886.JPG,2015-06-12T22:24:39,58.6951832,-93.39355541,20.71,-2.60051,-0.108813,0.0268705
DSC02887.JPG,2015-06-12T22:24:40,58.69505006,-93.3934023,21.27,-2.60707,-0.109682,0.0449298
DSC02888.JPG,2015-06-12T22:24:41,58.69486686,-93.39319358,21.78,-2.61658,-0.10746,0.0438025
DSC02889.JPG,2015-06-12T22:24:42,58.69469079,-93.39299627,22.26,-2.61557,-0.0998487,0.0481983
DSC02890.JPG,2015-06-12T22:24:43,58.69453671,-93.39282492,22.73,-2.61728,-0.110909,0.0414127
DSC02891.JPG,2015-06-12T22:24:44,58.69435091,-93.39262089,23.21,-2.60779,-0.169357,0.0775968
DSC02892.JPG,2015-06-12T22:24:45,58.69420497,-93.39246342,24.08,-2.60067,-0.166616,0.0704719
DSC02893.JPG,2015-06-12T22:24:46,58.69403014,-93.3922792,25.75,-2.61114,-0.152228,0.00355835
DSC02894.JPG,2015-06-12T22:24:47,58.69386329,-93.39210117,27.42,-2.63026,-0.0754587,0.0385371
DSC02895.JPG,2015-06-12T22:24:48,58.69371045,-93.39193515,27.89,-2.59858,-0.0742269,0.0329078
DSC02896.JPG,2015-06-12T22:24:49,58.69354434,-93.39175195,28.27,-2.60605,-0.121677,0.00878595
DSC02897.JPG,2015-06-12T22:24:50,58.69341352,-93.39160604,29.08,-2.65254,-0.109708,0.0371315
DSC02898.JPG,2015-06-12T22:24:51,58.69322392,-93.39139914,30.44,-2.69253,-0.0378007,0.109154
DSC02899.JPG,2015-06-12T22:24:52,58.69306536,-93.39123891,32.08,-2.6981,-0.0167744,0.0592602
DSC02900.JPG,2015-06-12T22:24:53,58.69291418,-93.39110091,33.44,-2.72193,-0.030044,0.0436906
DSC02901.JPG,2015-06-12T22:25:17,58.69325328,-93.39066487,30.31,-5.26303,-1.34793,0.676931
DSC02902.JPG,2015-06-12T22:25:18,58.69345887,-93.39100922,28.2,-5.52428,-0.929837,0.429201
DSC02903.JPG,2015-06-12T22:25:19,58.6936587,-93.39127947,26.6,-5.66577,-0.668117,-0.118887
DSC02904.JPG,2015-06-12T22:25:20,58.69385678,-93.39151429,27.16,-5.63413,0.13527,-1.07676
DSC02905.JPG,2015-06-12T22:25:21,58.69408277,-93.39176827,27.77,-5.67208,0.347652,-0.938479
DSC02906.JPG,2015-06-12T22:25:22,58.69428418,-93.39200151,28.48,-5.64016,-0.732216,-0.516021
DSC02907.JPG,2015-06-12T22:25:23,58.6945078,-93.39225701,29.3,-5.41643,-0.739083,-1.67406
DSC02908.JPG,2015-06-12T22:25:24,58.6947124,-93.39247944,30.75,-5.72146,0.175442,-0.731496
DSC02909.JPG,2015-06-12T22:25:25,58.69490749,-93.39269044,32.41,-5.74256,0.583246,-0.430008
DSC02910.JPG,2015-06-12T22:25:26,58.69511319,-93.39291745,31.86,-5.43832,1.93441,-0.100356
DSC02911.JPG,2015-06-12T22:25:27,58.69531039,-93.39314495,30.64,-5.74092,0.420084,0.217036
DSC02912.JPG,2015-06-12T22:25:28,58.69547224,-93.39333358,28.97,-5.7339,0.270749,-0.026895
DSC02913.JPG,2015-06-12T22:25:29,58.69568652,-93.3935754,27.31,-5.7026,0.39094,-0.364182
DSC02914.JPG,2015-06-12T22:25:30,58.69585985,-93.39377218,25.64,-5.66619,0.365741,-0.499388
DSC02915.JPG,2015-06-12T22:25:31,58.69610423,-93.39406131,25.22,-5.65519,0.033671,-0.546307
DSC02916.JPG,2015-06-12T22:25:33,58.69627264,-93.39426493,24.88,-5.71215,0.1231,-0.12049
DSC02917.JPG,2015-06-12T22:25:34,58.69648735,-93.39452381,24.55,-5.60631,0.0846748,-1.10947
DSC02918.JPG,2015-06-12T22:25:35,58.69669754,-93.39477821,26.08,-5.42833,-1.01048,-1.58014
DSC02919.JPG,2015-06-12T22:25:36,58.69688731,-93.39500502,29.18,-5.61013,-0.313023,-1.30817
DSC02920.JPG,2015-06-12T22:25:37,58.69707472,-93.39522536,31.15,-5.70288,-0.230567,0.274318
DSC02921.JPG,2015-06-12T22:25:38,58.69724849,-93.39542457,30.31,-5.74794,0.20963,0.170747
DSC02922.JPG,2015-06-12T22:25:39,58.69744334,-93.3956339,28.65,-5.75453,0.135872,-0.63337
DSC02923.JPG,2015-06-12T22:25:40,58.69765411,-93.39585099,28.95,-5.62643,1.06589,-0.945052
DSC02924.JPG,2015-06-12T22:25:41,58.69783289,-93.39604033,29.41,-5.70143,0.659766,-0.619548
DSC02925.JPG,2015-06-12T22:25:42,58.69804233,-93.39627586,29.16,-5.7661,-0.151077,-0.388185
DSC02926.JPG,2015-06-12T22:25:43,58.69820445,-93.3964596,28.66,-5.74279,0.37128,-0.0852239
DSC02927.JPG,2015-06-12T22:25:44,58.69840346,-93.39668399,27.31,-5.747,0.322994,0.0464458
DSC02928.JPG,2015-06-12T22:25:45,58.69860659,-93.39691425,24.75,-5.73671,0.11063,0.119418
DSC02929.JPG,2015-06-12T22:25:46,58.69881316,-93.39714136,23.75,-5.73218,-0.387848,-0.529973
DSC02930.JPG,2015-06-12T22:25:47,58.6990036,-93.39734286,24.05,-5.51551,-0.571042,-1.10511
DSC02931.JPG,2015-06-12T22:25:48,58.69917141,-93.39751792,25.08,-5.48398,0.239342,-1.41283
DSC02932.JPG,2015-06-12T22:26:14,58.69921091,-93.39704904,23.64,-2.697,-0.14671,-0.0688293
DSC02933.JPG,2015-06-12T22:26:15,58.69902588,-93.396877,24.47,-2.66922,-0.139383,-0.0603304
DSC02934.JPG,2015-06-12T22:26:16,58.69885823,-93.39670489,25.47,-2.62406,-0.0960686,-0.0194253
DSC02935.JPG,2015-06-12T22:26:17,58.69870871,-93.39654658,25.06,-2.62334,-0.037895,-0.0184032
DSC02936.JPG,2015-06-12T22:26:18,58.69857557,-93.39640318,24.64,-2.64503,-0.0604838,-0.0236588
DSC02937.JPG,2015-06-12T22:26:19,58.69837974,-93.39618708,24.89,-2.67482,-0.0886574,-0.0112015
DSC02938.JPG,2015-06-12T22:26:20,58.69821576,-93.39600685,25.39,-2.62048,-0.086012,0.024652
DSC02939.JPG,2015-06-12T22:26:21,58.69805768,-93.39583223,26.44,-2.61647,-0.105779,-0.0522132
DSC02940.JPG,2015-06-12T22:26:22,58.69788351,-93.39563469,27.94,-2.63843,-0.0548679,-0.0101339
DSC02941.JPG,2015-06-12T22:26:23,58.69773613,-93.39546453,28.97,-2.58746,-0.0774885,0.0788623
DSC02942.JPG,2015-06-12T22:26:24,58.69756939,-93.39528026,29.81,-2.63028,-0.0577149,0.0539486
DSC02943.JPG,2015-06-12T22:26:25,58.69738403,-93.39509201,30.69,-2.6576,-0.0805407,0.0379733
DSC02944.JPG,2015-06-12T22:26:26,58.6972028,-93.39491214,32.08,-2.67521,-0.134482,-0.0737933
DSC02945.JPG,2015-06-12T22:26:27,58.69707013,-93.39477627,34.75,-2.62264,-0.120452,-0.0214167
DSC02946.JPG,2015-06-12T22:26:28,58.69693866,-93.39463935,36.42,-2.62911,0.00982871,-0.0110673
DSC02947.JPG,2015-06-12T22:26:29,58.69676123,-93.39445122,35.75,-2.64322,0.0703101,-0.0820032
DSC02948.JPG,2015-06-12T22:26:30,58.6966256,-93.39430564,33.7,-2.63037,0.0748793,-0.0603938
DSC02949.JPG,2015-06-12T22:26:31,58.69647863,-93.39413814,31.09,-2.59019,0.007747,-0.026297
DSC02950.JPG,2015-06-12T22:26:32,58.69633516,-93.39396761,28.86,-2.59146,-0.00536527,0.0115995
DSC02951.JPG,2015-06-12T22:26:33,58.6961974,-93.39380378,27.92,-2.58905,0.013543,0.0140496
DSC02952.JPG,2015-06-12T22:26:34,58.69605591,-93.39363805,26.64,-2.61801,0.0294332,-0.00605718
DSC02953.JPG,2015-06-12T22:26:35,58.6958979,-93.3934555,23.7,-2.60315,-0.0193791,0.0039314
DSC02954.JPG,2015-06-12T22:26:36,58.69575991,-93.39329359,21.64,-2.57064,-0.0285446,0.0171439
DSC02955.JPG,2015-06-12T22:26:37,58.6956004,-93.39310443,20.25,-2.57665,-0.0836977,0.0265379
DSC02956.JPG,2015-06-12T22:26:38,58.69544619,-93.39292255,19.64,-2.59851,-0.107018,0.0427654
DSC02957.JPG,2015-06-12T22:26:39,58.69524942,-93.39269479,20.47,-2.60015,-0.156947,0.0359029
DSC02958.JPG,2015-06-12T22:26:40,58.69509616,-93.39252073,21.69,-2.62306,-0.157136,0.0332904
DSC02959.JPG,2015-06-12T22:26:41,58.69491655,-93.3923195,23.64,-2.59879,-0.146069,0.0587311
DSC02960.JPG,2015-06-12T22:26:42,58.69476487,-93.39215263,25.44,-2.61523,-0.121678,-0.0190672
DSC02961.JPG,2015-06-12T22:26:43,58.6946042,-93.39197223,26.19,-2.59776,-0.0663186,0.0178049
DSC02962.JPG,2015-06-12T22:26:44,58.69445098,-93.39179543,25.64,-2.60551,-0.0685723,0.0360923
DSC02963.JPG,2015-06-12T22:26:45,58.69429292,-93.39161314,26.8,-2.61131,-0.0750701,0.0445936
DSC02964.JPG,2015-06-12T22:26:46,58.69414272,-93.39144345,27.75,-2.63448,-0.0848602,0.0758934
DSC02965.JPG,2015-06-12T22:26:47,58.69399541,-93.3912853,29.42,-2.65113,-0.134562,0.0876165
DSC02966.JPG,2015-06-12T22:26:48,58.69383383,-93.39112535,31.63,-2.70706,-0.11114,0.00179993
DSC02967.JPG,2015-06-12T22:26:49,58.69366717,-93.39096604,32.86,-2.69921,-0.0118054,-0.0800673
DSC02968.JPG,2015-06-12T22:26:50,58.6935373,-93.39083731,33.32,-2.64893,-0.031113,-0.12091
DSC02969.JPG,2015-06-12T22:26:51,58.6933917,-93.39067595,33.08,-2.58781,0.0567212,-0.133801
DSC02970.JPG,2015-06-12T22:26:53,58.69313971,-93.39037452,27.31,-2.61745,0.083099,0.106659
DSC02971.JPG,2015-06-12T22:26:53,58.69328522,-93.39054943,31.42,-2.55088,0.138807,0.0246799
DSC02972.JPG,2015-06-12T22:26:55,58.69297855,-93.3902002,25.64,-2.63779,-0.0972552,0.0308295
DSC02973.JPG,2015-06-12T22:27:20,58.69326488,-93.38979764,26.31,-5.18195,-1.89952,0.519814
DSC02974.JPG,2015-06-12T22:27:21,58.69347821,-93.39011046,25.82,-5.66736,-0.776478,-0.336196
DSC02975.JPG,2015-06-12T22:27:22,58.69370424,-93.39036779,26.38,-5.63273,0.4871,-1.24313
DSC02976.JPG,2015-06-12T22:27:23,58.69392132,-93.39060486,26.81,-5.488,1.1852,-1.15161
DSC02977.JPG,2015-06-12T22:27:24,58.69414494,-93.39085978,27.19,-5.53022,0.517085,-1.28275
DSC02978.JPG,2015-06-12T22:27:25,58.69432148,-93.39107536,27.97,-5.63419,-0.286515,-0.685574
DSC02979.JPG,2015-06-12T22:27:26,58.6945587,-93.39136685,31.3,-5.66771,-0.417733,-0.967004
DSC02980.JPG,2015-06-12T22:27:27,58.69478102,-93.39162978,34.77,-5.48355,-0.436197,-1.72074
DSC02981.JPG,2015-06-12T22:27:28,58.6949657,-93.39184026,36.04,-5.66561,0.625707,-0.639177
DSC02982.JPG,2015-06-12T22:27:29,58.69518128,-93.39208555,35.14,-5.75756,0.502153,-0.294291
DSC02983.JPG,2015-06-12T22:27:30,58.69535017,-93.39227603,34.25,-5.70357,0.772098,-0.330948
DSC02984.JPG,2015-06-12T22:27:31,58.6955579,-93.39250872,33.42,-5.7532,-0.0137883,-0.439748
DSC02985.JPG,2015-06-12T22:27:32,58.69576502,-93.39274547,32.58,-5.75668,-0.205872,0.0363068
DSC02986.JPG,2015-06-12T22:27:33,58.6959625,-93.3929669,30.31,-5.72754,-0.287898,0.00602634
DSC02987.JPG,2015-06-12T22:27:34,58.69614444,-93.39316277,28.64,-5.61668,0.545199,-0.59487
DSC02988.JPG,2015-06-12T22:27:35,58.69630684,-93.39333682,25.97,-5.7621,0.437888,-0.588554
DSC02989.JPG,2015-06-12T22:27:36,58.69654651,-93.39360206,24.31,-5.62136,0.745926,-0.890169
DSC02990.JPG,2015-06-12T22:27:37,58.69674824,-93.39383605,24.19,-5.38547,1.49735,-0.99034
DSC02991.JPG,2015-06-12T22:27:38,58.6969368,-93.39407938,24.35,-5.70867,0.00709355,-0.0815636
DSC02992.JPG,2015-06-12T22:27:39,58.69714615,-93.39435644,24.1,-5.67764,-0.713384,0.103051
DSC02993.JPG,2015-06-12T22:27:40,58.69732744,-93.39457974,23.84,-5.65918,-0.119677,-0.422788
DSC02994.JPG,2015-06-12T22:27:41,58.69753467,-93.39482423,23.59,-5.65145,-0.670603,-0.407009
DSC02995.JPG,2015-06-12T22:27:42,58.69776328,-93.39508163,24.86,-5.54637,-0.857753,-1.21278
DSC02996.JPG,2015-06-12T22:27:43,58.69798678,-93.39531865,27.08,-5.77418,0.196991,-0.704909
DSC02997.JPG,2015-06-12T22:27:44,58.69815467,-93.39549482,29.75,-5.77137,-0.0561254,-0.45623
DSC02998.JPG,2015-06-12T22:27:46,58.69832286,-93.39567551,31.41,-5.75966,-0.136555,0.363649
DSC02999.JPG,2015-06-12T22:27:47,58.69855748,-93.39592731,29.98,-5.73391,0.26415,0.747394
DSC03000.JPG,2015-06-12T22:27:48,58.69874301,-93.39611985,28.61,-5.78757,-0.111314,0.00865305
DSC03001.JPG,2015-06-12T22:28:13,58.69881964,-93.39562315,23.47,-2.66785,-0.130434,0.0329579
DSC03002.JPG,2015-06-12T22:28:14,58.69863588,-93.39544671,23.72,-2.67171,-0.111696,0.00428313
DSC03003.JPG,2015-06-12T22:28:16,58.69849025,-93.39530742,23.98,-2.64407,-0.103398,-0.0343844
DSC03004.JPG,2015-06-12T22:28:17,58.6982868,-93.39510376,24.25,-2.65961,-0.125626,0.0310071
DSC03005.JPG,2015-06-12T22:28:18,58.69813337,-93.39494576,24.51,-2.65579,-0.0979229,0.100831
DSC03006.JPG,2015-06-12T22:28:19,58.69796862,-93.39477495,25.46,-2.58789,-0.110008,0.00139349
DSC03007.JPG,2015-06-12T22:28:20,58.69781006,-93.39460693,24.96,-2.63939,-0.079579,-0.0880469
DSC03008.JPG,2015-06-12T22:28:21,58.69765874,-93.39443689,24.59,-2.67933,-0.0206034,-0.056012
DSC03009.JPG,2015-06-12T22:28:22,58.69749736,-93.39424911,25.09,-2.57405,-0.107073,0.0771707
